[
  {
    "id": "bariga",
    "name": "Bariga",
    "city": "Lagos",
    "region": "Lagos",
    "kind": "origin",
    "blurb": "The neighborhood that names the origin story — Wo was shot here; every era still points back to these streets.",
    "eraSlug": "street-king-run",
    "albumSlug": "lagos-nawa",
    "momentAnchor": "moment-wo-lagos-nawa",
    "lat": 6.5361,
    "lng": 3.3903,
    "map": "lagos"
  },
  {
    "id": "agege",
    "name": "Agege",
    "city": "Lagos",
    "region": "Lagos",
    "kind": "cultural",
    "year": 2017,
    "blurb": "Where shaku shaku lived before Wo pushed it into national choreography.",
    "eraSlug": "street-king-run",
    "albumSlug": "lagos-nawa",
    "momentAnchor": "moment-wo-lagos-nawa",
    "lat": 6.618,
    "lng": 3.3224,
    "map": "lagos"
  },
  {
    "id": "yaba",
    "name": "Yaba / Coded Tunes",
    "city": "Lagos",
    "region": "Lagos",
    "kind": "venue",
    "year": 2010,
    "blurb": "The small Yoruba-rap label orbit that signed him — before YBNL, before the empire.",
    "eraSlug": "the-upstart",
    "albumSlug": "rapsodi",
    "momentAnchor": "moment-debut-single-eni-duro",
    "lat": 6.5095,
    "lng": 3.3711,
    "map": "lagos"
  },
  {
    "id": "ikeja",
    "name": "Ikeja",
    "city": "Lagos",
    "region": "Lagos",
    "kind": "venue",
    "blurb": "Radio, TV, and industry rooms on the mainland corridor — where street records had to clear before they could go national.",
    "eraSlug": "first-of-all",
    "lat": 6.6018,
    "lng": 3.3515,
    "map": "lagos"
  },
  {
    "id": "olic-lagos",
    "name": "OLIC / National Stadium",
    "city": "Lagos",
    "region": "Lagos",
    "kind": "concert",
    "year": 2014,
    "blurb": "Olamide Live in Concert — the series that made the Street King run flesh (editions through the mid-2010s, including OLIC 3 in 2016). Surulere-scale proof street-hop could headline.",
    "eraSlug": "street-king-run",
    "albumSlug": "street-ot",
    "momentAnchor": "moment-street-ot-wins-album-of-the-year",
    "lat": 6.4965,
    "lng": 3.3634,
    "map": "lagos"
  },
  {
    "id": "lagos-island",
    "name": "Lagos Island stages",
    "city": "Lagos",
    "region": "Lagos",
    "kind": "venue",
    "blurb": "Award shows, TV freestyles, and the industry rooms that first had to make space for Yoruba street bars.",
    "eraSlug": "the-upstart",
    "lat": 6.4541,
    "lng": 3.3947,
    "map": "lagos"
  },
  {
    "id": "lagos-city",
    "name": "Lagos",
    "city": "Lagos",
    "region": "Nigeria",
    "kind": "origin",
    "blurb": "The city that is the soundtrack — from Bariga corners to national charts, every chapter is a Lagos chapter.",
    "eraSlug": "the-upstart",
    "lat": 6.5244,
    "lng": 3.3792,
    "map": "nigeria"
  },
  {
    "id": "ibadan",
    "name": "Ibadan",
    "city": "Ibadan",
    "region": "Nigeria",
    "kind": "concert",
    "blurb": "Yoruba heartland stops on the touring calendar — the language of the records meeting the language of the crowd.",
    "eraSlug": "street-king-run",
    "lat": 7.3775,
    "lng": 3.947,
    "map": "nigeria"
  },
  {
    "id": "abuja",
    "name": "Abuja",
    "city": "Abuja",
    "region": "Nigeria",
    "kind": "concert",
    "blurb": "Capital-city stages on the Street King and label-boss tours — the archive's national reach, not just coastal.",
    "eraSlug": "street-king-run",
    "lat": 9.0765,
    "lng": 7.3986,
    "map": "nigeria"
  },
  {
    "id": "enugu",
    "name": "Enugu",
    "city": "Enugu",
    "region": "Nigeria",
    "kind": "cultural",
    "blurb": "Eastern circuit city in the peer map with Phyno — 2 Kings as east-meets-west, not a Lagos-only guest list.",
    "eraSlug": "street-king-run",
    "albumSlug": "2-kings",
    "momentAnchor": "moment-2-kings-eyan-mayweather",
    "lat": 6.4584,
    "lng": 7.5464,
    "map": "nigeria"
  },
  {
    "id": "port-harcourt",
    "name": "Port Harcourt",
    "city": "Port Harcourt",
    "region": "Nigeria",
    "kind": "cultural",
    "blurb": "Phyno's city — the other pole of the 2 Kings negotiation and a standing stop on the national route.",
    "eraSlug": "street-king-run",
    "albumSlug": "2-kings",
    "momentAnchor": "moment-2-kings-eyan-mayweather",
    "lat": 4.8156,
    "lng": 7.0498,
    "map": "nigeria"
  },
  {
    "id": "accra",
    "name": "Accra",
    "city": "Accra",
    "region": "Ghana",
    "kind": "international",
    "blurb": "West African circuit stop — street-hop and Afrobeats trading stages across the coast.",
    "eraSlug": "street-king-run",
    "lat": 5.6037,
    "lng": -0.187,
    "map": "world"
  },
  {
    "id": "london",
    "name": "London",
    "city": "London",
    "region": "UK",
    "kind": "international",
    "year": 2018,
    "blurb": "Diaspora stages where YBNL's second generation and Olamide's own bills met UK Afrobeats crowds.",
    "eraSlug": "reinvention",
    "lat": 51.5074,
    "lng": -0.1278,
    "map": "world"
  },
  {
    "id": "paris",
    "name": "Paris",
    "city": "Paris",
    "region": "France",
    "kind": "international",
    "blurb": "European Afrobeats corridor — festival and club bills that carried the catalog beyond Anglophone rooms.",
    "eraSlug": "reinvention",
    "lat": 48.8566,
    "lng": 2.3522,
    "map": "world"
  },
  {
    "id": "new-york",
    "name": "New York",
    "city": "New York",
    "region": "USA",
    "kind": "international",
    "blurb": "Empire-era and US showcase rooms — the joint-venture years pushing the catalog beyond West Africa.",
    "eraSlug": "reinvention",
    "momentAnchor": "moment-ybnl-empire",
    "lat": 40.7128,
    "lng": -74.006,
    "map": "world"
  },
  {
    "id": "toronto",
    "name": "Toronto",
    "city": "Toronto",
    "region": "Canada",
    "kind": "international",
    "blurb": "North American diaspora stop — Afrobeats rooms where YBNL's second generation and the founder's catalog overlapped.",
    "eraSlug": "elder-statesman",
    "lat": 43.6532,
    "lng": -79.3832,
    "map": "world"
  },
  {
    "id": "johannesburg",
    "name": "Johannesburg",
    "city": "Johannesburg",
    "region": "South Africa",
    "kind": "international",
    "blurb": "Southern African festival and promo stops — the catalog traveling with the continent's streaming boom.",
    "eraSlug": "elder-statesman",
    "lat": -26.2041,
    "lng": 28.0473,
    "map": "world"
  }
]
